[
    {
        "name": "Fareed  Ahmed Siddiqui",
        "area": "Lucknow, India",
        "city": "",
        "country": "",
        "latitude": 26.8381,
        "longitude": 80.9346001
    },
    {
        "name": "Sajid Un Nisa",
        "area": "Lucknow, India",
        "city": "",
        "country": "",
        "latitude": 26.8381,
        "longitude": 80.9346001
    },
    {
        "name": "Nazneen Nasir",
        "area": "Whaley Way",
        "city": "Milton",
        "country": "Canada",
        "latitude": 43.4830192,
        "longitude": -79.8718137
    },
    {
        "name": "Batool Arsalan",
        "area": "Whaley Way",
        "city": "Milton",
        "country": "Canada",
        "latitude": 43.4830192,
        "longitude": -79.8718137
    },
    {
        "name": "Maryum Yazdan",
        "area": "Whaley Way",
        "city": "Milton",
        "country": "Canada",
        "latitude": 43.4830192,
        "longitude": -79.8718137
    },
    {
        "name": "Zaina Yazdan",
        "area": "Whaley Way",
        "city": "Milton",
        "country": "Canada",
        "latitude": 43.4830192,
        "longitude": -79.8718137
    },
    {
        "name": "Zara Yazdan",
        "area": "Whaley Way",
        "city": "Milton",
        "country": "Canada",
        "latitude": 43.4830192,
        "longitude": -79.8718137
    },
    {
        "name": "Madiha Talha",
        "area": "Wheat Lane",
        "city": "Kitchener",
        "country": "Canada",
        "latitude": 43.3796985,
        "longitude": -80.4821036
    },
    {
        "name": "Talha Siddiqui",
        "area": "Wheat Lane",
        "city": "Kitchener",
        "country": "Canada",
        "latitude": 43.3796985,
        "longitude": -80.4821036
    },
    {
        "name": "Emaan Talha",
        "area": "Wheat Lane",
        "city": "Kitchener",
        "country": "Canada",
        "latitude": 43.3796985,
        "longitude": -80.4821036
    },
    {
        "name": "Pakeeza Fakhir",
        "area": "Whitehorn Ave",
        "city": "Mississauga",
        "country": "Canada",
        "latitude": 43.5946293,
        "longitude": -79.7023809
    },
    {
        "name": "Mir Fakhir Ali",
        "area": "Whitehorn Ave",
        "city": "Mississauga",
        "country": "Canada",
        "latitude": 43.5946293,
        "longitude": -79.7023809
    },
    {
        "name": "Mir Taha Ali",
        "area": "Whitehorn Ave",
        "city": "Mississauga",
        "country": "Canada",
        "latitude": 43.5946293,
        "longitude": -79.7023809
    },
    {
        "name": "Fatima Fakhir",
        "area": "Whitehorn Ave",
        "city": "Mississauga",
        "country": "Canada",
        "latitude": 43.5946293,
        "longitude": -79.7023809
    },
    {
        "name": "Farah Masroor",
        "area": "Monmouth Junction",
        "city": "New Jersey",
        "country": "USA",
        "latitude": 40.3840222,
        "longitude": -74.533084
    },
    {
        "name": "Masroor Ali",
        "area": "Monmouth Junction",
        "city": "New Jersey",
        "country": "USA",
        "latitude": 40.3840222,
        "longitude": -74.533084
    },
    {
        "name": "Ahsan Masroor",
        "area": "Monmouth Junction",
        "city": "New Jersey",
        "country": "USA",
        "latitude": 40.3840222,
        "longitude": -74.533084
    },
    {
        "name": "Sana Ahsan",
        "area": "Monmouth Junction",
        "city": "New Jersey",
        "country": "USA",
        "latitude": 40.3840222,
        "longitude": -74.533084
    },
    {
        "name": "Mohsin Masroor",
        "area": "Monmouth Junction",
        "city": "New Jersey",
        "country": "USA",
        "latitude": 40.3840222,
        "longitude": -74.533084
    },
    {
        "name": "Safa Mohsin",
        "area": "Monmouth Junction",
        "city": "New Jersey",
        "country": "USA",
        "latitude": 40.3840222,
        "longitude": -74.533084
    },
    {
        "name": "Noman Masroor",
        "area": "Monmouth Junction",
        "city": "New Jersey",
        "country": "USA",
        "latitude": 40.3840222,
        "longitude": -74.533084
    },
    {
        "name": "Rizwan Ahmed Siddiqui",
        "area": "Hendersonville",
        "city": "Tennessee",
        "country": "USA",
        "latitude": 36.3049177,
        "longitude": -86.621443
    },
    {
        "name": "Alisha Hamza",
        "area": "Edison",
        "city": "New Jersey",
        "country": "USA",
        "latitude": 40.518157,
        "longitude": -74.4113926
    },
    {
        "name": "Aftab Ahmed Siddiqui",
        "area": "Hendersonville",
        "city": "Tennessee",
        "country": "USA",
        "latitude": 36.3049177,
        "longitude": -86.621443
    },
    {
        "name": "Charlen Aftab",
        "area": "Hendersonville",
        "city": "Tennessee",
        "country": "USA",
        "latitude": 36.3049177,
        "longitude": -86.621443
    },
    {
        "name": "Kenzie Bost Siddiqui",
        "area": "Hendersonville",
        "city": "Tennessee",
        "country": "USA",
        "latitude": 36.3049177,
        "longitude": -86.621443
    },
    {
        "name": "Kelly Bost Siddiqui",
        "area": "Hendersonville",
        "city": "Tennessee",
        "country": "USA",
        "latitude": 36.3049177,
        "longitude": -86.621443
    },
    {
        "name": "Sharique Ahmed Siddiqui",
        "area": "FB Area",
        "city": "Karachi",
        "country": "Pakistan",
        "latitude": 24.9325689,
        "longitude": 67.070392
    },
    {
        "name": "Rabia Sharique",
        "area": "FB Area",
        "city": "Karachi",
        "country": "Pakistan",
        "latitude": 24.9325689,
        "longitude": 67.070392
    },
    {
        "name": "Arhab Ahmed Siddiqui",
        "area": "FB Area",
        "city": "Karachi",
        "country": "Pakistan",
        "latitude": 24.9325689,
        "longitude": 67.070392
    },
    {
        "name": "Jabira Siddiqui",
        "area": "FB Area",
        "city": "Karachi",
        "country": "Pakistan",
        "latitude": 24.9325689,
        "longitude": 67.070392
    },
    {
        "name": "Pashmina Siddiqui",
        "area": "FB Area",
        "city": "Karachi",
        "country": "Pakistan",
        "latitude": 24.9325689,
        "longitude": 67.070392
    },
    {
        "name": "Washma Siddiqui",
        "area": "FB Area",
        "city": "Karachi",
        "country": "Pakistan",
        "latitude": 24.9325689,
        "longitude": 67.070392
    },
    {
        "name": "Asif  Ahmed Siddiqui",
        "area": "Gulshan-e-Iqbal",
        "city": "Karachi",
        "country": "Pakistan",
        "latitude": 24.9067294,
        "longitude": 67.0986573
    },
    {
        "name": "Erum Asif",
        "area": "Gulshan-e-Iqbal",
        "city": "Karachi",
        "country": "Pakistan",
        "latitude": 24.9067294,
        "longitude": 67.0986573
    },
    {
        "name": "Hamza Siddiqui",
        "area": "Scarborough",
        "city": "Toronto",
        "country": "Canada",
        "latitude": 43.7729744,
        "longitude": -79.2576479
    },
    {
        "name": "Tayyab Ahmed Siddiqui",
        "area": "Denton",
        "city": "Texas",
        "country": "USA",
        "latitude": 33.1838787,
        "longitude": -97.1413417
    },
    {
        "name": "Hira Hassan",
        "area": "Airport Road",
        "city": "Lahore",
        "country": "Pakistan",
        "latitude": 31.5023018,
        "longitude": 74.4235152
    },
    {
        "name": "M Hasaan Saeed",
        "area": "Airport Road",
        "city": "Lahore",
        "country": "Pakistan",
        "latitude": 31.5023018,
        "longitude": 74.4235152
    },
    {
        "name": "Samia Siddiqui",
        "area": "PECHS",
        "city": "Karachi",
        "country": "Pakistan",
        "latitude": 24.8684802,
        "longitude": 67.0587242
    },
    {
        "name": "Taha Ahmed Khan",
        "area": "PECHS",
        "city": "Karachi",
        "country": "Pakistan",
        "latitude": 24.8684802,
        "longitude": 67.0587242
    },
    {
        "name": "Amin Ahmed Khan",
        "area": "PECHS",
        "city": "Karachi",
        "country": "Pakistan",
        "latitude": 24.8684802,
        "longitude": 67.0587242
    },
    {
        "name": "Khalid Ahmed Siddiqui",
        "area": "Malir 15",
        "city": "Karachi",
        "country": "Pakistan",
        "latitude": 24.8790242,
        "longitude": 67.1882644
    },
    {
        "name": "Zaiyda Khalid",
        "area": "Malir 15",
        "city": "Karachi",
        "country": "Pakistan",
        "latitude": 24.8790242,
        "longitude": 67.1882644
    },
    {
        "name": "Talha Ahmed Siddiqui",
        "area": "Malir 15",
        "city": "Karachi",
        "country": "Pakistan",
        "latitude": 24.8790242,
        "longitude": 67.1882644
    },
    {
        "name": "Maheen Siddiqui",
        "area": "Malir 15",
        "city": "Karachi",
        "country": "Pakistan",
        "latitude": 24.8790242,
        "longitude": 67.1882644
    },
    {
        "name": "Hammad Ahmed Siddiqui",
        "area": "Malir 15",
        "city": "Karachi",
        "country": "Pakistan",
        "latitude": 24.8790242,
        "longitude": 67.1882644
    },
    {
        "name": "Sabiha  Abbas",
        "area": "Bufferzone",
        "city": "Karachi",
        "country": "Pakistan",
        "latitude": 24.9576415,
        "longitude": 67.0733113
    },
    {
        "name": "Imran Abbasi",
        "area": "Bufferzone",
        "city": "Karachi",
        "country": "Pakistan",
        "latitude": 24.9576415,
        "longitude": 67.0733113
    },
    {
        "name": "Javeria Binte Abbas",
        "area": "Bufferzone",
        "city": "Karachi",
        "country": "Pakistan",
        "latitude": 24.9576415,
        "longitude": 67.0733113
    },
    {
        "name": "Zainab Binte Abbas",
        "area": "Bufferzone",
        "city": "Karachi",
        "country": "Pakistan",
        "latitude": 24.9576415,
        "longitude": 67.0733113
    },
    {
        "name": "Namrah binte Abbas",
        "area": "Bufferzone",
        "city": "Karachi",
        "country": "Pakistan",
        "latitude": 24.9576415,
        "longitude": 67.0733113
    }
]